{
  "images": [
    {
      "src": "/lost_keys.png",
      "location": "Hinton James Residence Hall",
      "alt": "Image 1",
      "title": "Keys",
      "date" : "10/28/2023",
      "phone" : "111-111-1111"
    },
    {
      "src": "/snap_image_2.png",
      "location": "Eringhaus Residence Hall",
      "alt": "Image 1",
      "title": "Credit Card",
      "date" : "10/28/2023",
      "phone" : "111-111-1111"
    },
    {
      "src": "/snap_image_1.png",
      "location": "Koury Residence Hall",
      "alt": "Image 1",
      "title": "Keys",
      "date" : "10/28/2023",
      "phone" : "111-111-1111"
    },
    {
      "src": "/lost_phone.png",
      "location": "Eringhaus Residence Hall",
      "alt": "Image 1",
      "title": "Wallet",
      "date" : "10/28/2023",
      "phone" : "111-111-1111"
    },
    {
      "src": "/airpods2.jpg",
      "location": "Davis Library",
      "alt": "Image 1",
      "title": "Airpods with case",
      "date" : "10/28/2023",
      "phone" : "111-111-1111"
    },
    {
      "src": "/lost_airpod.png",
      "location": "Morrison Residence Hall",
      "alt": "Image 1",
      "title": "Airpods with case",
      "date" : "10/28/2023",
      "phone" : "111-111-1111"
    },
    {
      "src": "/airpod6.jpg",
      "location": "Sitterson Hall",
      "alt": "Image 1",
      "title": "Airpods",
      "date" : "10/28/2023",
      "phone" : "111-111-1111"
    },
    {
      "src": "/lost_wallet_2.png",
      "location": "Carmichael Residence Hall",
      "alt": "Image 1",
      "title": "Wallet",
      "date" : "10/28/2023",
      "phone" : "111-111-1111"
    },
    {
      "src": "/lost_water_bottle.png",
      "location": "Hinton James Residence Hall",
      "alt": "Image 1",
      "title": "Water Bottle",
      "date" : "10/28/2023",
      "phone" : "111-111-1111"
    },
    {
      "src": "/lost_wallet.png",
      "location": "Hamilton Hall",
      "alt": "Image 1",
      "title": "Lost Wallet",
      "date" : "10/21/2023",
      "phone" : "111-111-1111"
    }
  ]
}
